stop_id,MSOA11CD,MSOA11NM,stop_name,geometry
9400ZZLUACT3,E02000270,Ealing 033,Acton Town Underground Station,POINT (-0.279924 51.50281)
9400ZZLUACT4,E02000270,Ealing 033,Acton Town Underground Station,POINT (-0.279853 51.50276)
9400ZZLUACT1,E02000270,Ealing 033,Acton Town Underground Station,POINT (-0.280079 51.50289)
9400ZZLUACT2,E02000270,Ealing 033,Acton Town Underground Station,POINT (-0.280009 51.50284)
9400ZZLUALP1,E02000121,Brent 029,Alperton Underground Station,POINT (-0.299837 51.54072)
9400ZZLUALP2,E02000121,Brent 029,Alperton Underground Station,POINT (-0.299708 51.54068)
9400ZZLUASG1,E02000308,Enfield 032,Arnos Grove Underground Station,POINT (-0.133068 51.6163)
9400ZZLUASL1,E02000559,Islington 006,Arsenal Underground Station,POINT (-0.107903 51.55868)
9400ZZLUASL2,E02000559,Islington 006,Arsenal Underground Station,POINT (-0.107931 51.5587)
9400ZZLUBDS1,E02000400,Haringey 004,Bounds Green Underground Station,POINT (-0.124617 51.60688)
9400ZZLUBOS1,E02000531,Hounslow 006,Boston Manor Underground Station,POINT (-0.324665 51.49564)
9400ZZLUBOS2,E02000531,Hounslow 006,Boston Manor Underground Station,POINT (-0.324724 51.4956)
9400ZZLUBSC3,E02000385,Hammersmith and Fulham 014,Barons Court Underground Station,POINT (-0.213999 51.49041)
9400ZZLUBSC4,E02000385,Hammersmith and Fulham 014,Barons Court Underground Station,POINT (-0.213884 51.4904)
9400ZZLUBSC1,E02000385,Hammersmith and Fulham 014,Barons Court Underground Station,POINT (-0.2142 51.49042)
9400ZZLUBSC2,E02000385,Hammersmith and Fulham 014,Barons Court Underground Station,POINT (-0.214114 51.49041)
9400ZZLUWKN1,E02000385,Hammersmith and Fulham 014,West Kensington Underground Station,POINT (-0.20619 51.49083)
9400ZZLUWKN2,E02000385,Hammersmith and Fulham 014,West Kensington Underground Station,POINT (-0.206088 51.49085)
9400ZZLUCAR1,E02000568,Islington 015,Caledonian Road Underground Station,POINT (-0.118613 51.54875)
9400ZZLUCGN1,E02000977,Westminster 018,Covent Garden Underground Station,POINT (-0.12438 51.51304)
9400ZZLUCGN2,E02000977,Westminster 018,Covent Garden Underground Station,POINT (-0.124336 51.51305)
9400ZZLUGPK4,E02000977,Westminster 018,Green Park Underground Station,POINT (-0.14193 51.50712)
9400ZZLULSQ3,E02000977,Westminster 018,Leicester Square Underground Station,POINT (-0.127668 51.5116)
9400ZZLULSQ4,E02000977,Westminster 018,Leicester Square Underground Station,POINT (-0.127609 51.51162)
9400ZZLUPCC3,E02000977,Westminster 018,Piccadilly Circus Underground Station,POINT (-0.135495 51.50944)
9400ZZLUPCC4,E02000977,Westminster 018,Piccadilly Circus Underground Station,POINT (-0.134926 51.50959)
9400ZZLUCHX4,E02000977,Westminster 018,Charing Cross Underground Station,POINT (-0.125691 51.50884)
9400ZZLUCHX5,E02000977,Westminster 018,Charing Cross Underground Station,POINT (-0.125592 51.5088)
9400ZZLULSQ1,E02000977,Westminster 018,Leicester Square Underground Station,POINT (-0.128618 51.51197)
9400ZZLULSQ2,E02000977,Westminster 018,Leicester Square Underground Station,POINT (-0.128577 51.51191)
9400ZZLUGPK2,E02000977,Westminster 018,Green Park Underground Station,POINT (-0.141694 51.50618)
9400ZZLUGPK3,E02000977,Westminster 018,Green Park Underground Station,POINT (-0.14158 51.50616)
9400ZZLUTMP1,E02000977,Westminster 018,Temple Underground Station,POINT (-0.114756 51.51086)
9400ZZLUTMP2,E02000977,Westminster 018,Temple Underground Station,POINT (-0.114669 51.51088)
9400ZZLUGPK1,E02000977,Westminster 018,Green Park Underground Station,POINT (-0.142256 51.50654)
9400ZZLUGPK5,E02000977,Westminster 018,Green Park Underground Station,POINT (-0.142257 51.5065)
9400ZZLUCHX1,E02000977,Westminster 018,Charing Cross Underground Station,POINT (-0.128097 51.50745)
9400ZZLUEMB1,E02000977,Westminster 018,Embankment Underground Station,POINT (-0.122886 51.5066)
9400ZZLUEMB2,E02000977,Westminster 018,Embankment Underground Station,POINT (-0.122772 51.50658)
9400ZZLUCKS1,E02000287,Enfield 011,Cockfosters Underground Station,POINT (-0.149056 51.65151)
9400ZZLUEAE1,E02000501,Hillingdon 008,Eastcote Underground Station,POINT (-0.396519 51.57659)
9400ZZLUEAE2,E02000501,Hillingdon 008,Eastcote Underground Station,POINT (-0.396576 51.57659)
9400ZZLUECM1,E02000264,Ealing 027,Ealing Common Underground Station,POINT (-0.288213 51.50999)
9400ZZLUECM2,E02000264,Ealing 027,Ealing Common Underground Station,POINT (-0.288185 51.50996)
9400ZZLUECT3,E02000591,Kensington and Chelsea 015,Earl's Court Underground Station,POINT (-0.193752 51.49172)
9400ZZLUECT4,E02000591,Kensington and Chelsea 015,Earl's Court Underground Station,POINT (-0.193663 51.49178)
9400ZZLUECT1,E02000591,Kensington and Chelsea 015,Earl's Court Underground Station,POINT (-0.193836 51.49177)
9400ZZLUFPK1,E02000558,Islington 005,Finsbury Park Underground Station,POINT (-0.106036 51.56439)
9400ZZLUFPK2,E02000558,Islington 005,Finsbury Park Underground Station,POINT (-0.105749 51.56435)
9400ZZLUFPK3,E02000558,Islington 005,Finsbury Park Underground Station,POINT (-0.106035 51.56442)
9400ZZLUFPK4,E02000558,Islington 005,Finsbury Park Underground Station,POINT (-0.105746 51.56443)
9400ZZLUGTR4,E02000592,Kensington and Chelsea 016,Gloucester Road Underground Station,POINT (-0.183207 51.49426)
9400ZZLUGTR5,E02000592,Kensington and Chelsea 016,Gloucester Road Underground Station,POINT (-0.183079 51.49423)
9400ZZLUGTR2,E02000592,Kensington and Chelsea 016,Gloucester Road Underground Station,POINT (-0.183105 51.4943)
9400ZZLUGTR3,E02000592,Kensington and Chelsea 016,Gloucester Road Underground Station,POINT (-0.183005 51.49428)
9400ZZLUGTR1,E02000592,Kensington and Chelsea 016,Gloucester Road Underground Station,POINT (-0.183205 51.49432)
9400ZZLUHBN3,E02000193,Camden 028,Holborn Underground Station,POINT (-0.120244 51.51759)
9400ZZLUHBN4,E02000193,Camden 028,Holborn Underground Station,POINT (-0.120204 51.51751)
9400ZZLURSQ1,E02000193,Camden 028,Russell Square Underground Station,POINT (-0.124399 51.52346)
9400ZZLURSQ2,E02000193,Camden 028,Russell Square Underground Station,POINT (-0.124358 51.5234)
9400ZZLUCHL1,E02000193,Camden 028,Chancery Lane Underground Station,POINT (-0.112143 51.51831)
9400ZZLUCHL2,E02000193,Camden 028,Chancery Lane Underground Station,POINT (-0.112014 51.51829)
9400ZZLUHBN1,E02000193,Camden 028,Holborn Underground Station,POINT (-0.119504 51.51771)
9400ZZLUHBN2,E02000193,Camden 028,Holborn Underground Station,POINT (-0.11936 51.5177)
9400ZZLUHGD1,E02000506,Hillingdon 013,Hillingdon Underground Station,POINT (-0.450409 51.55359)
9400ZZLUHGD2,E02000506,Hillingdon 013,Hillingdon Underground Station,POINT (-0.45038 51.55359)
9400ZZLUHNX1,E02000524,Hillingdon 031,Hatton Cross Underground Station,POINT (-0.423607 51.46639)
9400ZZLUHR41,E02000524,Hillingdon 031,Heathrow Terminal 4 Underground Station,POINT (-0.445863 51.45836)
9400ZZLUHR51,E02000524,Hillingdon 031,Heathrow Terminal 5 Underground Station,POINT (-0.49049 51.47001)
9400ZZLUHRC1,E02000524,Hillingdon 031,Heathrow Terminals 2 & 3 Underground Station,POINT (-0.452334 51.47132)
9400ZZLUHRC2,E02000524,Hillingdon 031,Heathrow Terminals 1-2-3 Underground Station,POINT (-0.45229 51.47135)
9400ZZLUHPC1,E02000978,Westminster 019,Hyde Park Corner Underground Station,POINT (-0.153129 51.50278)
9400ZZLUKNB2,E02000978,Westminster 019,Knightsbridge Underground Station,POINT (-0.161235 51.5015)
9400ZZLUHSD3,E02000384,Hammersmith and Fulham 013,Hammersmith (Dist&Picc Line) Underground Station,POINT (-0.223976 51.49242)
9400ZZLUHSD4,E02000384,Hammersmith and Fulham 013,Hammersmith (Dist&Picc Line) Underground Station,POINT (-0.223934 51.49238)
9400ZZLUHSD1,E02000384,Hammersmith and Fulham 013,Hammersmith (Dist&Picc Line) Underground Station,POINT (-0.224074 51.49249)
9400ZZLUHSD2,E02000384,Hammersmith and Fulham 013,Hammersmith (Dist&Picc Line) Underground Station,POINT (-0.224018 51.49245)
9400ZZLUHSC1,E02000384,Hammersmith and Fulham 013,Hammersmith (H&C Line) Underground Station,POINT (-0.22513 51.49384)
9400ZZLUHWC1,E02000543,Hounslow 018,Hounslow Central Underground Station,POINT (-0.366203 51.47133)
9400ZZLUHWE1,E02000537,Hounslow 012,Hounslow East Underground Station,POINT (-0.356145 51.47354)
9400ZZLUHWE2,E02000537,Hounslow 012,Hounslow East Underground Station,POINT (-0.356057 51.4736)
9400ZZLUOSY1,E02000537,Hounslow 012,Osterley Underground Station,POINT (-0.351812 51.4815)
9400ZZLUOSY2,E02000537,Hounslow 012,Osterley Underground Station,POINT (-0.351843 51.48145)
9400ZZLUHWT1,E02000542,Hounslow 017,Hounslow West Underground Station,POINT (-0.385754 51.47342)
9400ZZLUHWY1,E02000564,Islington 011,Holloway Road Underground Station,POINT (-0.11335 51.5529)
9400ZZLUICK1,E02000504,Hillingdon 011,Ickenham Underground Station,POINT (-0.442225 51.56177)
9400ZZLUICK2,E02000504,Hillingdon 011,Ickenham Underground Station,POINT (-0.442256 51.56171)
9400ZZLUKNB1,E02000588,Kensington and Chelsea 012,Knightsbridge Underground Station,POINT (-0.161179 51.50146)
9400ZZLUKSX6,E02000187,Camden 022,King's Cross St. Pancras Underground Station,POINT (-0.12301 51.53129)
9400ZZLUKSX7,E02000187,Camden 022,King's Cross St. Pancras Underground Station,POINT (-0.123007 51.53136)
490000129E,E02000187,Camden 022,King's Cross St. Pancras Underground Station,POINT (-0.123072 51.5305)
9400ZZLUMRH1,E02000346,Hackney 002,Manor House Underground Station,POINT (-0.09644 51.57028)
9400ZZLUNEN1,E02000257,Ealing 020,North Ealing Underground Station,POINT (-0.288395 51.51782)
9400ZZLUNEN2,E02000257,Ealing 020,North Ealing Underground Station,POINT (-0.288454 51.51779)
9400ZZLUEBY1,E02000257,Ealing 020,Ealing Broadway Underground Station,POINT (-0.301493 51.51521)
9400ZZLUEBY3,E02000257,Ealing 020,Ealing Broadway Underground Station,POINT (-0.301234 51.5152)
9400ZZLUEBY4,E02000257,Ealing 020,Ealing Broadway Underground Station,POINT (-0.301075 51.5152)
9400ZZLUNFD1,E02000269,Ealing 032,Northfields Underground Station,POINT (-0.313468 51.49964)
9400ZZLUNFD2,E02000269,Ealing 032,Northfields Underground Station,POINT (-0.313381 51.49967)
9400ZZLUSEA1,E02000269,Ealing 032,South Ealing Underground Station,POINT (-0.307421 51.5011)
9400ZZLUSEA2,E02000269,Ealing 032,South Ealing Underground Station,POINT (-0.307364 51.50108)
9400ZZLUOAK1,E02000296,Enfield 020,Oakwood Underground Station,POINT (-0.131418 51.64733)
9400ZZLUSGT1,E02000296,Enfield 020,Southgate Underground Station,POINT (-0.12772 51.63218)
9400ZZLUPKR1,E02000248,Ealing 011,Park Royal Underground Station,POINT (-0.284058 51.5266)
9400ZZLUPKR2,E02000248,Ealing 011,Park Royal Underground Station,POINT (-0.284032 51.52652)
9400ZZLUHGR1,E02000248,Ealing 011,Hanger Lane Underground Station,POINT (-0.293405 51.53033)
9400ZZLURSM1,E02000500,Hillingdon 007,Ruislip Manor Underground Station,POINT (-0.412215 51.57343)
9400ZZLURSM2,E02000500,Hillingdon 007,Ruislip Manor Underground Station,POINT (-0.412113 51.57346)
9400ZZLURSP1,E02000500,Hillingdon 007,Ruislip Underground Station,POINT (-0.421537 51.57137)
9400ZZLURSP2,E02000500,Hillingdon 007,Ruislip Underground Station,POINT (-0.42142 51.57139)
9400ZZLURSP3,E02000500,Hillingdon 007,Ruislip Underground Station,POINT (-0.421653 51.57134)
9400ZZLURSP4,E02000500,Hillingdon 007,Ruislip Underground Station,POINT (-0.421465 51.57136)
9400ZZLURVP1,E02000382,Hammersmith and Fulham 011,Ravenscourt Park Underground Station,POINT (-0.235924 51.49413)
9400ZZLURVP2,E02000382,Hammersmith and Fulham 011,Ravenscourt Park Underground Station,POINT (-0.235837 51.49413)
9400ZZLURYL1,E02006795,Harrow 032,Rayners Lane Underground Station,POINT (-0.371458 51.57518)
9400ZZLURYL2,E02006795,Harrow 032,Rayners Lane Underground Station,POINT (-0.371372 51.57516)
9400ZZLUSHH1,E02000462,Harrow 030,South Harrow Underground Station,POINT (-0.352332 51.56452)
9400ZZLUSHH2,E02000462,Harrow 030,South Harrow Underground Station,POINT (-0.352277 51.56447)
9400ZZLUSKS2,E02000590,Kensington and Chelsea 014,South Kensington Underground Station,POINT (-0.173363 51.49402)
9400ZZLUSKS3,E02000590,Kensington and Chelsea 014,South Kensington Underground Station,POINT (-0.173263 51.49402)
9400ZZLUSKS1,E02000590,Kensington and Chelsea 014,South Kensington Underground Station,POINT (-0.173057 51.4941)
9400ZZLUSKS4,E02000590,Kensington and Chelsea 014,South Kensington Underground Station,POINT (-0.172913 51.4941)
9400ZZLUSUH1,E02000461,Harrow 029,Sudbury Hill Underground Station,POINT (-0.336951 51.55704)
9400ZZLUSUH2,E02000461,Harrow 029,Sudbury Hill Underground Station,POINT (-0.336837 51.557)
9400ZZLUSUT1,E02000108,Brent 016,Sudbury Town Underground Station,POINT (-0.315774 51.5508)
9400ZZLUSUT2,E02000108,Brent 016,Sudbury Town Underground Station,POINT (-0.315689 51.55076)
9400ZZLUTNG1,E02000526,Hounslow 001,Turnham Green Underground Station,POINT (-0.254622 51.49527)
9400ZZLUTNG2,E02000526,Hounslow 001,Turnham Green Underground Station,POINT (-0.25455 51.49526)
9400ZZLUSFB2,E02000526,Hounslow 001,Stamford Brook Underground Station,POINT (-0.245917 51.495)
9400ZZLUSFB1,E02000526,Hounslow 001,Stamford Brook Underground Station,POINT (-0.245931 51.495)
9400ZZLUTNG3,E02000526,Hounslow 001,Turnham Green Underground Station,POINT (-0.254464 51.49526)
9400ZZLUTNG4,E02000526,Hounslow 001,Turnham Green Underground Station,POINT (-0.254377 51.49526)
9400ZZLUTPN1,E02000415,Haringey 019,Turnpike Lane Underground Station,POINT (-0.10289 51.59005)
9400ZZLUUXB1,E02000508,Hillingdon 015,Uxbridge Underground Station,POINT (-0.477191 51.54681)
9400ZZLUWOG1,E02000403,Haringey 007,Wood Green Underground Station,POINT (-0.11009 51.59744)
9400ZZBPSUST,E02000924,Wandsworth 002,Battersea Power Station Underground Station,POINT (-0.142142 51.47993)
490012196E,E02000924,Wandsworth 002,Battersea Power Station Underground Station,POINT (-0.141429 51.47976)
490012196S,E02000924,Wandsworth 002,Battersea Power Station Underground Station,POINT (-0.141129 51.47971)
9400ZZLUACY1,E02000557,Islington 004,Archway Underground Station,POINT (-0.134586 51.56518)
9400ZZLUAGL1,E02000575,Islington 022,Angel Underground Station,POINT (-0.10593 51.53186)
9400ZZLUFCN1,E02000575,Islington 022,Farringdon Underground Station,POINT (-0.104992 51.52043)
9400ZZLUFCN2,E02000575,Islington 022,Farringdon Underground Station,POINT (-0.104937 51.52037)
9400ZZLUBLM1,E02000943,Wandsworth 021,Balham Underground Station,POINT (-0.152265 51.44397)
9400ZZLUBNK4,E02000001,City of London 001,Bank Underground Station,POINT (-0.087847 51.51231)
9400ZZLUBNK5,E02000001,City of London 001,Bank Underground Station,POINT (-0.087792 51.51225)
9400ZZLUMGT3,E02000001,City of London 001,Moorgate Underground Station,POINT (-0.087818 51.51887)
9400ZZLUMGT4,E02000001,City of London 001,Moorgate Underground Station,POINT (-0.087786 51.51893)
9400ZZLUBNK1,E02000001,City of London 001,Bank Underground Station,POINT (-0.088899 51.51335)
9400ZZLUBNK2,E02000001,City of London 001,Bank Underground Station,POINT (-0.088712 51.51333)
9400ZZLULVT1,E02000001,City of London 001,Liverpool Street Underground Station,POINT (-0.082127 51.51811)
9400ZZLULVT2,E02000001,City of London 001,Liverpool Street Underground Station,POINT (-0.082202 51.51806)
9400ZZLUSPU1,E02000001,City of London 001,St. Paul's Underground Station,POINT (-0.098321 51.51517)
9400ZZLUSPU2,E02000001,City of London 001,St. Paul's Underground Station,POINT (-0.098392 51.51519)
9400ZZLUBKF1,E02000001,City of London 001,Blackfriars Underground Station,POINT (-0.103341 51.5116)
9400ZZLUBKF2,E02000001,City of London 001,Blackfriars Underground Station,POINT (-0.103239 51.51162)
9400ZZLUCST1,E02000001,City of London 001,Cannon Street Underground Station,POINT (-0.090423 51.51136)
9400ZZLUCST2,E02000001,City of London 001,Cannon Street Underground Station,POINT (-0.090424 51.51136)
9400ZZLUMMT1,E02000001,City of London 001,Monument Underground Station,POINT (-0.086169 51.51075)
9400ZZLUMMT2,E02000001,City of London 001,Monument Underground Station,POINT (-0.086069 51.51072)
9400ZZLUMSH1,E02000001,City of London 001,Mansion House Underground Station,POINT (-0.094776 51.5117)
9400ZZLUMSH2,E02000001,City of London 001,Mansion House Underground Station,POINT (-0.09505 51.5117)
9400ZZLUALD2,E02000001,City of London 001,Aldgate Underground Station,POINT (-0.075506 51.51414)
9400ZZLUALD3,E02000001,City of London 001,Aldgate Underground Station,POINT (-0.075465 51.51409)
9400ZZLUBBN1,E02000001,City of London 001,Barbican Underground Station,POINT (-0.097948 51.52032)
9400ZZLUBBN2,E02000001,City of London 001,Barbican Underground Station,POINT (-0.098049 51.5203)
9400ZZLULVT3,E02000001,City of London 001,Liverpool Street Underground Station,POINT (-0.082364 51.51727)
9400ZZLULVT4,E02000001,City of London 001,Liverpool Street Underground Station,POINT (-0.082278 51.51726)
9400ZZLUMGT1,E02000001,City of London 001,Moorgate Underground Station,POINT (-0.089406 51.51846)
9400ZZLUMGT2,E02000001,City of London 001,Moorgate Underground Station,POINT (-0.089505 51.51849)
9400ZZLUALD1,E02000001,City of London 001,Aldgate Underground Station,POINT (-0.075547 51.51419)
9400ZZLUALD4,E02000001,City of London 001,Aldgate Underground Station,POINT (-0.075423 51.51404)
9400ZZLUBNK3,E02000001,City of London 001,Bank Underground Station,POINT (-0.090047 51.51313)
9400ZZLUBNK8,E02000001,City of London 001,Bank Underground Station,POINT (-0.088339 51.51331)
9400ZZLUBOR1,E02000808,Southwark 002,Borough Underground Station,POINT (-0.093508 51.50098)
9400ZZLUBOR2,E02000808,Southwark 002,Borough Underground Station,POINT (-0.093597 51.50094)
9400ZZLUBTK1,E02000047,Barnet 024,Burnt Oak Underground Station,POINT (-0.264131 51.60286)
9400ZZLUBTX1,E02000060,Barnet 037,Brent Cross Underground Station,POINT (-0.213621 51.57669)
9400ZZLUBZP1,E02000176,Camden 011,Belsize Park Underground Station,POINT (-0.164766 51.55024)
9400ZZLUBZP2,E02000173,Camden 008,Belsize Park Underground Station,POINT (-0.164783 51.55053)
9400ZZLUCFM1,E02000177,Camden 012,Chalk Farm Underground Station,POINT (-0.153529 51.54421)
9400ZZLUCND1,E02000053,Barnet 030,Colindale Underground Station,POINT (-0.250089 51.59551)
9400ZZLUCPC1,E02000634,Lambeth 017,Clapham Common Underground Station,POINT (-0.136841 51.46229)
9400ZZLUCPN1,E02000629,Lambeth 012,Clapham North Underground Station,POINT (-0.129359 51.46573)
9400ZZLUCPS1,E02000636,Lambeth 019,Clapham South Underground Station,POINT (-0.147036 51.45334)
9400ZZLUCSD1,E02000693,Merton 005,Colliers Wood Underground Station,POINT (-0.177577 51.41866)
9400ZZLUCTN1,E02000186,Camden 021,Camden Town Underground Station,POINT (-0.142465 51.5393)
9400ZZLUCTN2,E02000186,Camden 021,Camden Town Underground Station,POINT (-0.142888 51.53919)
9400ZZLUCTN3,E02000186,Camden 021,Camden Town Underground Station,POINT (-0.142478 51.53935)
9400ZZLUCTN4,E02000186,Camden 021,Camden Town Underground Station,POINT (-0.142972 51.53926)
9400ZZLUMTC1,E02000186,Camden 021,Mornington Crescent Underground Station,POINT (-0.138585 51.53439)
9400ZZLUEAC3,E02006802,Southwark 034,Elephant & Castle Underground Station,POINT (-0.100512 51.49506)
9400ZZLUEAC4,E02006802,Southwark 034,Elephant & Castle Underground Station,POINT (-0.100529 51.49501)
9400ZZLUSWK1,E02006802,Southwark 034,Southwark Underground Station,POINT (-0.105632 51.5043)
9400ZZLUSWK2,E02006802,Southwark 034,Southwark Underground Station,POINT (-0.105331 51.50427)
9400ZZLUEAC1,E02006802,Southwark 034,Elephant & Castle Underground Station,POINT (-0.100985 51.49581)
9400ZZLUEAC2,E02006802,Southwark 034,Elephant & Castle Underground Station,POINT (-0.101069 51.49586)
9400ZZLUEFY1,E02000056,Barnet 033,East Finchley Underground Station,POINT (-0.164963 51.58725)
9400ZZLUEFY2,E02000056,Barnet 033,East Finchley Underground Station,POINT (-0.16502 51.58729)
9400ZZLUEGW1,E02000041,Barnet 018,Edgware Underground Station,POINT (-0.275004 51.61353)
9400ZZLUEMB5,E02000979,Westminster 020,Embankment Underground Station,POINT (-0.122542 51.50726)
9400ZZLUEMB6,E02000979,Westminster 020,Embankment Underground Station,POINT (-0.122541 51.50729)
9400ZZLUWSM3,E02000979,Westminster 020,Westminster Underground Station,POINT (-0.124773 51.501)
9400ZZLUWSM4,E02000979,Westminster 020,Westminster Underground Station,POINT (-0.124932 51.501)
9400ZZLUEMB3,E02000979,Westminster 020,Embankment Underground Station,POINT (-0.122291 51.50706)
9400ZZLUEMB4,E02000979,Westminster 020,Embankment Underground Station,POINT (-0.122308 51.507)
9400ZZLUSJP1,E02000979,Westminster 020,St. James's Park Underground Station,POINT (-0.134421 51.49938)
9400ZZLUSJP2,E02000979,Westminster 020,St. James's Park Underground Station,POINT (-0.134509 51.49934)
9400ZZLUVIC4,E02000979,Westminster 020,Victoria Underground Station,POINT (-0.143596 51.49697)
9400ZZLUWSM1,E02000979,Westminster 020,Westminster Underground Station,POINT (-0.124877 51.50128)
9400ZZLUWSM2,E02000979,Westminster 020,Westminster Underground Station,POINT (-0.124838 51.50118)
9400ZZLUVIC2,E02000979,Westminster 020,Victoria Underground Station,POINT (-0.14346 51.49712)
9400ZZLUVIC3,E02000979,Westminster 020,Victoria Underground Station,POINT (-0.143536 51.49703)
9400ZZLUEUS2,E02000188,Camden 023,Euston Underground Station,POINT (-0.131846 51.52782)
9400ZZLUEUS3,E02000188,Camden 023,Euston Underground Station,POINT (-0.1323 51.52834)
9400ZZLUEUS4,E02000188,Camden 023,Euston Underground Station,POINT (-0.134193 51.52824)
9400ZZLUEUS5,E02000188,Camden 023,Euston Underground Station,POINT (-0.134239 51.52819)
9400ZZLUEUS1,E02000188,Camden 023,Euston Underground Station,POINT (-0.132183 51.52805)
9400ZZLUEUS6,E02000188,Camden 023,Euston Underground Station,POINT (-0.132066 51.52809)
9400ZZLUFYC1,E02000046,Barnet 023,Finchley Central Underground Station,POINT (-0.19277 51.60099)
9400ZZLUFYC2,E02000046,Barnet 023,Finchley Central Underground Station,POINT (-0.19267 51.60094)
9400ZZLUGDG1,E02000191,Camden 026,Goodge Street Underground Station,POINT (-0.134488 51.52067)
9400ZZLUWRR1,E02000191,Camden 026,Warren Street Underground Station,POINT (-0.137784 51.52433)
9400ZZLUWRR2,E02000191,Camden 026,Warren Street Underground Station,POINT (-0.137757 51.52428)
9400ZZLUESQ1,E02000191,Camden 026,Euston Square Underground Station,POINT (-0.135309 51.52563)
9400ZZLUESQ2,E02000191,Camden 026,Euston Square Underground Station,POINT (-0.135367 51.52561)
9400ZZLUWRR3,E02000191,Camden 026,Warren Street Underground Station,POINT (-0.138688 51.52408)
9400ZZLUWRR4,E02000191,Camden 026,Warren Street Underground Station,POINT (-0.138719 51.52403)
9400ZZLUGGN1,E02000061,Barnet 038,Golders Green Underground Station,POINT (-0.194075 51.57244)
9400ZZLUGGN2,E02000061,Barnet 038,Golders Green Underground Station,POINT (-0.194003 51.57244)
9400ZZLUHBT1,E02000024,Barnet 001,High Barnet Underground Station,POINT (-0.19415 51.65061)
9400ZZLUHCL1,E02000055,Barnet 032,Hendon Central Underground Station,POINT (-0.226455 51.58325)
9400ZZLUHGT1,E02000426,Haringey 030,Highgate Underground Station,POINT (-0.145805 51.57775)
9400ZZLUHTD1,E02000167,Camden 002,Hampstead Underground Station,POINT (-0.178466 51.55644)
9400ZZLUHTD2,E02000167,Camden 002,Hampstead Underground Station,POINT (-0.177464 51.55624)
9400ZZLUKNG1,E02000820,Southwark 014,Kennington Underground Station,POINT (-0.105699 51.48845)
9400ZZLUKNG2,E02000820,Southwark 014,Kennington Underground Station,POINT (-0.105759 51.48839)
9400ZZLUKSH1,E02000168,Camden 003,Kentish Town Underground Station,POINT (-0.140702 51.55036)
9400ZZLUKSH2,E02000168,Camden 003,Kentish Town Underground Station,POINT (-0.140719 51.55029)
9400ZZLUTFP1,E02000168,Camden 003,Tufnell Park Underground Station,POINT (-0.138391 51.5568)
9400ZZLUTFP2,E02000168,Camden 003,Tufnell Park Underground Station,POINT (-0.138422 51.55674)
9400ZZLUKSX4,E02000574,Islington 021,King's Cross St. Pancras Underground Station,POINT (-0.121991 51.53083)
9400ZZLUKSX5,E02000574,Islington 021,King's Cross St. Pancras Underground Station,POINT (-0.121875 51.53084)
9400ZZLULNB1,E02000812,Southwark 006,London Bridge Underground Station,POINT (-0.088599 51.50572)
9400ZZLUMDN2,E02000711,Merton 023,Morden Underground Station,POINT (-0.194828 51.40242)
9400ZZLUMHL1,E02000040,Barnet 017,Mill Hill East Underground Station,POINT (-0.209843 51.60819)
9400ZZLUODS1,E02000576,Islington 023,Old Street Underground Station,POINT (-0.087547 51.52499)
9400ZZLUOVL1,E02000622,Lambeth 005,Oval Underground Station,POINT (-0.112623 51.48157)
9400ZZLUOVL2,E02000622,Lambeth 005,Oval Underground Station,POINT (-0.112399 51.48177)
9400ZZLUSKW1,E02000627,Lambeth 010,Stockwell Underground Station,POINT (-0.122917 51.47183)
9400ZZLUSKW2,E02000627,Lambeth 010,Stockwell Underground Station,POINT (-0.122933 51.47181)
9400ZZLUSKW3,E02000627,Lambeth 010,Stockwell Underground Station,POINT (-0.122784 51.47193)
9400ZZLUSKW4,E02000627,Lambeth 010,Stockwell Underground Station,POINT (-0.122828 51.4719)
9400ZZLUSWN1,E02000697,Merton 009,South Wimbledon Underground Station,POINT (-0.19282 51.41508)
9400ZZLUTAW1,E02000031,Barnet 008,Totteridge & Whetstone Underground Station,POINT (-0.179226 51.63057)
9400ZZLUTAW2,E02000031,Barnet 008,Totteridge & Whetstone Underground Station,POINT (-0.179228 51.6305)
9400ZZLUTBC1,E02000951,Wandsworth 029,Tooting Bec Underground Station,POINT (-0.159024 51.43585)
9400ZZLUTBY1,E02000957,Wandsworth 035,Tooting Broadway Underground Station,POINT (-0.168178 51.42784)
9400ZZLUTCR2,E02000972,Westminster 013,Tottenham Court Road Underground Station,POINT (-0.13043 51.51594)
9400ZZLUTCR3,E02000972,Westminster 013,Tottenham Court Road Underground Station,POINT (-0.130402 51.5159)
9400ZZLUOXC1,E02000972,Westminster 013,Oxford Circus Underground Station,POINT (-0.141363 51.51537)
9400ZZLUOXC5,E02000972,Westminster 013,Oxford Circus Underground Station,POINT (-0.141248 51.51538)
9400ZZLUTCR1,E02000972,Westminster 013,Tottenham Court Road Underground Station,POINT (-0.131549 51.51641)
9400ZZLUTCR4,E02000972,Westminster 013,Tottenham Court Road Underground Station,POINT (-0.130401 51.51594)
9400ZZLUGPS1,E02000972,Westminster 013,Great Portland Street Underground Station,POINT (-0.144002 51.52384)
9400ZZLUGPS2,E02000972,Westminster 013,Great Portland Street Underground Station,POINT (-0.144017 51.52383)
9400ZZLUOXC2,E02000972,Westminster 013,Oxford Circus Underground Station,POINT (-0.14227 51.51576)
9400ZZLUOXC6,E02000972,Westminster 013,Oxford Circus Underground Station,POINT (-0.14211 51.51579)
9400ZZLUOXC3,E02000972,Westminster 013,Oxford Circus Underground Station,POINT (-0.142084 51.51572)
9400ZZLUOXC4,E02000972,Westminster 013,Oxford Circus Underground Station,POINT (-0.142244 51.5157)
9400ZZLUPCC1,E02000972,Westminster 013,Piccadilly Circus Underground Station,POINT (-0.135281 51.51008)
9400ZZLUPCC2,E02000972,Westminster 013,Piccadilly Circus Underground Station,POINT (-0.135179 51.51012)
9400ZZLUWFN1,E02000043,Barnet 020,West Finchley Underground Station,POINT (-0.188449 51.60941)
9400ZZLUWFN2,E02000043,Barnet 020,West Finchley Underground Station,POINT (-0.188466 51.60935)
9400ZZLUWLO3,E02006801,Lambeth 036,Waterloo Underground Station,POINT (-0.113575 51.50319)
9400ZZLUWLO4,E02006801,Lambeth 036,Waterloo Underground Station,POINT (-0.113021 51.50333)
9400ZZLULBN1,E02006801,Lambeth 036,Lambeth North Underground Station,POINT (-0.111174 51.49852)
9400ZZLUWLO1,E02006801,Lambeth 036,Waterloo Underground Station,POINT (-0.11512 51.5031)
9400ZZLUWLO2,E02006801,Lambeth 036,Waterloo Underground Station,POINT (-0.115093 51.50305)
9400ZZLUWLO5,E02006801,Lambeth 036,Waterloo Underground Station,POINT (-0.112875 51.50268)
9400ZZLUWLO6,E02006801,Lambeth 036,Waterloo Underground Station,POINT (-0.11293 51.50274)
9400ZZLUWOP1,E02000035,Barnet 012,Woodside Park Underground Station,POINT (-0.185602 51.61778)
9400ZZLUWOP2,E02000035,Barnet 012,Woodside Park Underground Station,POINT (-0.185454 51.61787)
9400ZZNEUGST,E02000621,Lambeth 004,Nine Elms Underground Station,POINT (-0.128476 51.47991)
490014679N,E02000621,Lambeth 004,Nine Elms Underground Station,POINT (-0.128801 51.47937)
9400ZZLUVXL1,E02000621,Lambeth 004,Vauxhall Underground Station,POINT (-0.12453 51.48621)
9400ZZLUBKE1,E02000763,Redbridge 013,Barkingside Underground Station,POINT (0.088662 51.58579)
9400ZZLUBKE2,E02000763,Redbridge 013,Barkingside Underground Station,POINT (0.08866 51.58575)
9400ZZLUNBP1,E02000763,Redbridge 013,Newbury Park Underground Station,POINT (0.090052 51.57551)
9400ZZLUNBP2,E02000763,Redbridge 013,Newbury Park Underground Station,POINT (0.090055 51.57558)
9400ZZLUBLG1,E02000874,Tower Hamlets 011,Bethnal Green Underground Station,POINT (-0.054591 51.52705)
9400ZZLUSGN1,E02000874,Tower Hamlets 011,Stepney Green Underground Station,POINT (-0.046918 51.52175)
9400ZZLUSGN2,E02000874,Tower Hamlets 011,Stepney Green Underground Station,POINT (-0.046816 51.52177)
9400ZZLUBND1,E02000970,Westminster 011,Bond Street Underground Station,POINT (-0.149444 51.51441)
9400ZZLUBND2,E02000970,Westminster 011,Bond Street Underground Station,POINT (-0.149158 51.51473)
9400ZZLUBND3,E02000970,Westminster 011,Bond Street Underground Station,POINT (-0.14916 51.51468)
9400ZZLURGP1,E02000970,Westminster 011,Regent's Park Underground Station,POINT (-0.146294 51.52315)
9400ZZLURGP2,E02000970,Westminster 011,Regent's Park Underground Station,POINT (-0.146267 51.52309)
9400ZZLUEAN1,E02000372,Hammersmith and Fulham 001,East Acton Underground Station,POINT (-0.247877 51.51712)
9400ZZLUEAN2,E02000372,Hammersmith and Fulham 001,East Acton Underground Station,POINT (-0.247891 51.51714)
9400ZZLUWCY1,E02000372,Hammersmith and Fulham 001,White City Underground Station,POINT (-0.224022 51.51199)
9400ZZLUWCY2,E02000372,Hammersmith and Fulham 001,White City Underground Station,POINT (-0.224239 51.51196)
9400ZZLUWLA1,E02000372,Hammersmith and Fulham 001,Wood Lane Underground Station,POINT (-0.224401 51.50966)
9400ZZLUWLA2,E02000372,Hammersmith and Fulham 001,Wood Lane Underground Station,POINT (-0.224329 51.50964)
9400ZZLUFLP1,E02000756,Redbridge 006,Fairlop Underground Station,POINT (0.091224 51.59602)
9400ZZLUFLP2,E02000756,Redbridge 006,Fairlop Underground Station,POINT (0.091207 51.59595)
9400ZZLUHLT1,E02000756,Redbridge 006,Hainault Underground Station,POINT (0.093304 51.60357)
9400ZZLUHLT2,E02000756,Redbridge 006,Hainault Underground Station,POINT (0.093384 51.60373)
9400ZZLUGFD1,E02000243,Ealing 006,Greenford Underground Station,POINT (-0.345212 51.54246)
9400ZZLUGFD2,E02000243,Ealing 006,Greenford Underground Station,POINT (-0.345274 51.54235)
9400ZZLUGTH1,E02006924,Redbridge 035,Gants Hill Underground Station,POINT (0.065017 51.57656)
9400ZZLUHPK1,E02000583,Kensington and Chelsea 007,Holland Park Underground Station,POINT (-0.205751 51.50714)
9400ZZLUHPK2,E02000583,Kensington and Chelsea 007,Holland Park Underground Station,POINT (-0.205749 51.50718)
9400ZZLULGT1,E02000975,Westminster 016,Lancaster Gate Underground Station,POINT (-0.174685 51.51177)
9400ZZLUPAC3,E02000975,Westminster 016,Paddington Underground Station,POINT (-0.175521 51.51538)
9400ZZLUPAC4,E02000975,Westminster 016,Paddington Underground Station,POINT (-0.175447 51.51543)
9400ZZLULYN1,E02000920,Waltham Forest 026,Leyton Underground Station,POINT (-0.005047 51.55692)
9400ZZLULYN2,E02000920,Waltham Forest 026,Leyton Underground Station,POINT (-0.004958 51.55698)
9400ZZLULYS1,E02000918,Waltham Forest 024,Leytonstone Underground Station,POINT (0.008209 51.56834)
9400ZZLULYS2,E02000918,Waltham Forest 024,Leytonstone Underground Station,POINT (0.008351 51.56829)
9400ZZLUMBA1,E02000971,Westminster 012,Marble Arch Underground Station,POINT (-0.157606 51.51359)
9400ZZLUERC3,E02000971,Westminster 012,Edgware Road (Circle Line) Underground Station,POINT (-0.167719 51.5198)
9400ZZLUERC1,E02000971,Westminster 012,Edgware Road (Circle Line) Underground Station,POINT (-0.167748 51.5198)
9400ZZLUERC2,E02000971,Westminster 012,Edgware Road (Circle Line) Underground Station,POINT (-0.167734 51.5198)
9400ZZLUERC4,E02000971,Westminster 012,Edgware Road (Circle Line) Underground Station,POINT (-0.167705 51.5198)
9400ZZLUMYB1,E02000971,Westminster 012,Marylebone Underground Station,POINT (-0.163475 51.52212)
9400ZZLUMYB2,E02000971,Westminster 012,Marylebone Underground Station,POINT (-0.163359 51.52214)
9400ZZLUMED1,E02000866,Tower Hamlets 003,Mile End Underground Station,POINT (-0.033559 51.52533)
9400ZZLUMED2,E02000866,Tower Hamlets 003,Mile End Underground Station,POINT (-0.033457 51.52536)
9400ZZLUMED3,E02000866,Tower Hamlets 003,Mile End Underground Station,POINT (-0.033369 51.52539)
9400ZZLUMED4,E02000866,Tower Hamlets 003,Mile End Underground Station,POINT (-0.033268 51.5254)
9400ZZLUNAN1,E02000252,Ealing 015,North Acton Underground Station,POINT (-0.259739 51.52357)
9400ZZLUNAN2,E02000252,Ealing 015,North Acton Underground Station,POINT (-0.259653 51.52355)
9400ZZLUNHG1,E02000582,Kensington and Chelsea 006,Notting Hill Gate Underground Station,POINT (-0.197309 51.50892)
9400ZZLUNHG2,E02000582,Kensington and Chelsea 006,Notting Hill Gate Underground Station,POINT (-0.196974 51.50899)
9400ZZLUNHT1,E02000241,Ealing 004,Northolt Underground Station,POINT (-0.369124 51.54846)
9400ZZLUPVL1,E02000244,Ealing 007,Perivale Underground Station,POINT (-0.322799 51.53667)
9400ZZLUQWY1,E02000976,Westminster 017,Queensway Underground Station,POINT (-0.187209 51.51031)
9400ZZLUBWT1,E02000976,Westminster 017,Bayswater Underground Station,POINT (-0.188152 51.51235)
9400ZZLUBWT2,E02000976,Westminster 017,Bayswater Underground Station,POINT (-0.188209 51.51234)
9400ZZLURBG1,E02006925,Redbridge 036,Redbridge Underground Station,POINT (0.046454 51.57619)
9400ZZLURSG1,E02000503,Hillingdon 010,Ruislip Gardens Underground Station,POINT (-0.410839 51.56075)
9400ZZLUSBC1,E02000375,Hammersmith and Fulham 004,Shepherd's Bush (Central) Underground Station,POINT (-0.218129 51.50456)
9400ZZLUSBM1,E02000375,Hammersmith and Fulham 004,Shepherd's Bush Market Underground Station,POINT (-0.22636 51.50596)
9400ZZLUSBM2,E02000375,Hammersmith and Fulham 004,Shepherd's Bush Market Underground Station,POINT (-0.22633 51.50599)
9400ZZLUSNB1,E02000764,Redbridge 014,Snaresbrook Underground Station,POINT (0.021441 51.5807)
9400ZZLUSNB2,E02000764,Redbridge 014,Snaresbrook Underground Station,POINT (0.02141 51.58065)
9400ZZLUSRP1,E02006796,Hillingdon 033,South Ruislip Underground Station,POINT (-0.399373 51.55696)
9400ZZLUSTD1,E02000726,Newham 013,Stratford Underground Station,POINT (-0.002311 51.54232)
9400ZZLUSTD2,E02000726,Newham 013,Stratford Underground Station,POINT (-0.002426 51.54233)
9400ZZLUSTD3,E02000726,Newham 013,Stratford Underground Station,POINT (-0.002541 51.54233)
9400ZZLUSWF1,E02000757,Redbridge 007,South Woodford Underground Station,POINT (0.02736 51.59175)
9400ZZLUSWF2,E02000757,Redbridge 007,South Woodford Underground Station,POINT (0.027342 51.59168)
9400ZZLUWOF1,E02000751,Redbridge 001,Woodford Underground Station,POINT (0.033781 51.60718)
9400ZZLUWOF2,E02000751,Redbridge 001,Woodford Underground Station,POINT (0.03375 51.60713)
9400ZZLUWRP1,E02000502,Hillingdon 009,West Ruislip Underground Station,POINT (-0.437343 51.56951)
9400ZZLUWSD1,E02000768,Redbridge 018,Wanstead Underground Station,POINT (0.029069 51.57566)
9400ZZLUWTA1,E02000258,Ealing 021,West Acton Underground Station,POINT (-0.280641 51.51819)
9400ZZLUWTA2,E02000258,Ealing 021,West Acton Underground Station,POINT (-0.2807 51.51816)
9400ZZLUCWP1,E02006791,Ealing 040,Chiswick Park Underground Station,POINT (-0.26797 51.49468)
9400ZZLUCWP2,E02006791,Ealing 040,Chiswick Park Underground Station,POINT (-0.26807 51.49471)
9400ZZLUBMY1,E02000810,Southwark 004,Bermondsey Underground Station,POINT (-0.063712 51.49792)
9400ZZLUBMY2,E02000810,Southwark 004,Bermondsey Underground Station,POINT (-0.063993 51.49775)
9400ZZLUBST5,E02000967,Westminster 008,Baker Street Underground Station,POINT (-0.157696 51.52315)
9400ZZLUBST6,E02000967,Westminster 008,Baker Street Underground Station,POINT (-0.157594 51.52318)
9400ZZLUBST3,E02000967,Westminster 008,Baker Street Underground Station,POINT (-0.156838 51.52227)
9400ZZLUBST4,E02000967,Westminster 008,Baker Street Underground Station,POINT (-0.156736 51.5223)
9400ZZLUBST7,E02000967,Westminster 008,Baker Street Underground Station,POINT (-0.156829 51.52285)
9400ZZLUBST8,E02000967,Westminster 008,Baker Street Underground Station,POINT (-0.156774 51.5228)
9400ZZLUBST1,E02000967,Westminster 008,Baker Street Underground Station,POINT (-0.157506 51.52321)
9400ZZLUBST2,E02000967,Westminster 008,Baker Street Underground Station,POINT (-0.15739 51.52324)
9400ZZLUCGT1,E02000747,Newham 034,Canning Town Underground Station,POINT (0.007704 51.51429)
9400ZZLUCGT2,E02000747,Newham 034,Canning Town Underground Station,POINT (0.007416 51.51429)
9400ZZLUCPK1,E02000434,Harrow 002,Canons Park Underground Station,POINT (-0.294854 51.60803)
9400ZZLUCPK2,E02000434,Harrow 002,Canons Park Underground Station,POINT (-0.294867 51.60806)
9400ZZLUCWR2,E02000813,Southwark 007,Canada Water Underground Station,POINT (-0.049981 51.49828)
9400ZZLUCWR3,E02000813,Southwark 007,Canada Water Underground Station,POINT (-0.049405 51.49793)
9400ZZLUCYF1,E02006854,Tower Hamlets 033,Canary Wharf Underground Station,POINT (-0.018141 51.50359)
490000038F,E02006854,Tower Hamlets 033,Canary Wharf Underground Station,POINT (-0.02064 51.50543)
490000038G,E02006854,Tower Hamlets 033,Canary Wharf Underground Station,POINT (-0.020459 51.50461)
9400ZZLUDOH1,E02000110,Brent 018,Dollis Hill Underground Station,POINT (-0.238661 51.55203)
9400ZZLUWIG1,E02000110,Brent 018,Willesden Green Underground Station,POINT (-0.221846 51.54935)
9400ZZLUFYR1,E02000175,Camden 010,Finchley Road Underground Station,POINT (-0.180264 51.54717)
9400ZZLUFYR2,E02000175,Camden 010,Finchley Road Underground Station,POINT (-0.180278 51.54718)
9400ZZLUWHP1,E02000175,Camden 010,West Hampstead Underground Station,POINT (-0.190475 51.5468)
490000263S,E02000175,Camden 010,West Hampstead Underground Station,POINT (-0.191099 51.54672)
9400ZZLUFYR3,E02000175,Camden 010,Finchley Road Underground Station,POINT (-0.180249 51.54717)
9400ZZLUFYR4,E02000175,Camden 010,Finchley Road Underground Station,POINT (-0.180235 51.54717)
9400ZZLUKBN1,E02000115,Brent 023,Kilburn Underground Station,POINT (-0.204487 51.54699)
9400ZZLUKBN2,E02000115,Brent 023,Kilburn Underground Station,POINT (-0.204248 51.54718)
9400ZZLUKBY1,E02000095,Brent 003,Kingsbury Underground Station,POINT (-0.278342 51.58449)
9400ZZLUKBY2,E02000095,Brent 003,Kingsbury Underground Station,POINT (-0.278323 51.58461)
9400ZZLULNB2,E02000809,Southwark 003,London Bridge Underground Station,POINT (-0.087845 51.50584)
9400ZZLUNDN1,E02000106,Brent 014,Neasden Underground Station,POINT (-0.250317 51.55424)
9400ZZLUNGW1,E02006929,Greenwich 036,North Greenwich Underground Station,POINT (0.005191 51.50038)
9400ZZLUNGW2,E02006929,Greenwich 036,North Greenwich Underground Station,POINT (0.005308 51.50042)
9400ZZLUQBY1,E02000093,Brent 001,Queensbury Underground Station,POINT (-0.285947 51.59413)
9400ZZLUQBY2,E02000093,Brent 001,Queensbury Underground Station,POINT (-0.28589 51.5941)
9400ZZLUSJW1,E02000960,Westminster 001,St. John's Wood Underground Station,POINT (-0.174876 51.53476)
9400ZZLUSTM1,E02000433,Harrow 001,Stanmore Underground Station,POINT (-0.302742 51.61917)
9400ZZLUSWC1,E02000182,Camden 017,Swiss Cottage Underground Station,POINT (-0.175229 51.5436)
9400ZZLUWHM2,E02000733,Newham 020,West Ham Underground Station,POINT (0.005597 51.52865)
9400ZZLUWHM1,E02000733,Newham 020,West Ham Underground Station,POINT (0.005593 51.52856)
9400ZZLUWYP1,E02000104,Brent 012,Wembley Park Underground Station,POINT (-0.279596 51.56352)
9400ZZLUWYP2,E02000104,Brent 012,Wembley Park Underground Station,POINT (-0.279581 51.56352)
9400ZZLUWYP3,E02000104,Brent 012,Wembley Park Underground Station,POINT (-0.279596 51.56351)
9400ZZLUWYP4,E02000104,Brent 012,Wembley Park Underground Station,POINT (-0.279567 51.56352)
9400ZZLUADE1,E02000884,Tower Hamlets 021,Aldgate East Underground Station,POINT (-0.071358 51.51543)
9400ZZLUADE2,E02000878,Tower Hamlets 015,Aldgate East Underground Station,POINT (-0.071255 51.51548)
9400ZZLUBBB1,E02000871,Tower Hamlets 008,Bromley-by-Bow Underground Station,POINT (-0.012024 51.52461)
9400ZZLUBBB2,E02000871,Tower Hamlets 008,Bromley-by-Bow Underground Station,POINT (-0.011937 51.52461)
9400ZZLUBEC1,E02000013,Barking and Dagenham 012,Becontree Underground Station,POINT (0.127003 51.54037)
9400ZZLUBEC2,E02000013,Barking and Dagenham 012,Becontree Underground Station,POINT (0.127105 51.54037)
9400ZZLUBKG1,E02000016,Barking and Dagenham 015,Barking Underground Station,POINT (0.080809 51.53966)
9400ZZLUBKG3,E02000016,Barking and Dagenham 015,Barking Underground Station,POINT (0.080978 51.53957)
9400ZZLUBKG2,E02000016,Barking and Dagenham 015,Barking Underground Station,POINT (0.080893 51.53961)
9400ZZLUBWR1,E02000875,Tower Hamlets 012,Bow Road Underground Station,POINT (-0.025041 51.52695)
9400ZZLUBWR2,E02000875,Tower Hamlets 012,Bow Road Underground Station,POINT (-0.024926 51.52693)
9400ZZLUDGE1,E02000011,Barking and Dagenham 010,Dagenham East Underground Station,POINT (0.165384 51.54413)
9400ZZLUDGE2,E02000011,Barking and Dagenham 010,Dagenham East Underground Station,POINT (0.165514 51.54415)
9400ZZLUDGY1,E02000014,Barking and Dagenham 013,Dagenham Heathway Underground Station,POINT (0.146546 51.54164)
9400ZZLUDGY2,E02000014,Barking and Dagenham 013,Dagenham Heathway Underground Station,POINT (0.146555 51.54151)
9400ZZLUECT2,E02000589,Kensington and Chelsea 013,Earl's Court Underground Station,POINT (-0.193776 51.49183)
9400ZZLUEHM1,E02000731,Newham 018,East Ham Underground Station,POINT (0.052169 51.53933)
9400ZZLUEHM2,E02000731,Newham 018,East Ham Underground Station,POINT (0.052271 51.53936)
9400ZZLUEPK1,E02000489,Havering 026,Elm Park Underground Station,POINT (0.19758 51.54963)
9400ZZLUEPY1,E02000936,Wandsworth 014,East Putney Underground Station,POINT (-0.211249 51.45873)
9400ZZLUEPY2,E02000936,Wandsworth 014,East Putney Underground Station,POINT (-0.211266 51.45867)
9400ZZLUFBY1,E02000388,Hammersmith and Fulham 017,Fulham Broadway Underground Station,POINT (-0.195062 51.48044)
9400ZZLUFBY2,E02000388,Hammersmith and Fulham 017,Fulham Broadway Underground Station,POINT (-0.19502 51.48041)
9400ZZLUGBY1,E02006792,Hounslow 029,Gunnersbury Underground Station,POINT (-0.275521 51.49155)
9400ZZLUHCH1,E02000486,Havering 023,Hornchurch Underground Station,POINT (0.218249 51.55406)
9400ZZLUHCH2,E02000486,Havering 023,Hornchurch Underground Station,POINT (0.218366 51.5541)
9400ZZLUHSK1,E02000586,Kensington and Chelsea 010,High Street Kensington Underground Station,POINT (-0.192197 51.50043)
9400ZZLUHSK2,E02000586,Kensington and Chelsea 010,High Street Kensington Underground Station,POINT (-0.192143 51.50036)
9400ZZLUKOY1,E02000585,Kensington and Chelsea 009,Kensington (Olympia) Underground Station,POINT (-0.210171 51.49805)
9400ZZLUKWG1,E02000785,Richmond upon Thames 002,Kew Gardens Underground Station,POINT (-0.285159 51.47694)
9400ZZLUKWG2,E02000785,Richmond upon Thames 002,Kew Gardens Underground Station,POINT (-0.285143 51.477)
9400ZZLUNHG3,E02000584,Kensington and Chelsea 008,Notting Hill Gate Underground Station,POINT (-0.196033 51.50875)
9400ZZLUNHG4,E02000584,Kensington and Chelsea 008,Notting Hill Gate Underground Station,POINT (-0.196007 51.50867)
9400ZZLUPLW1,E02000734,Newham 021,Plaistow Underground Station,POINT (0.016767 51.53118)
9400ZZLUPLW2,E02000734,Newham 021,Plaistow Underground Station,POINT (0.016854 51.5312)
9400ZZLUPSG1,E02000392,Hammersmith and Fulham 021,Parsons Green Underground Station,POINT (-0.201637 51.4751)
9400ZZLUPSG2,E02000392,Hammersmith and Fulham 021,Parsons Green Underground Station,POINT (-0.201534 51.47516)
9400ZZLUPYB1,E02000395,Hammersmith and Fulham 024,Putney Bridge Underground Station,POINT (-0.208816 51.4683)
9400ZZLUPYB2,E02000395,Hammersmith and Fulham 024,Putney Bridge Underground Station,POINT (-0.208787 51.4683)
9400ZZLURMD1,E02000789,Richmond upon Thames 006,Richmond Underground Station,POINT (-0.301249 51.46325)
9400ZZLUSFS1,E02000942,Wandsworth 020,Southfields Underground Station,POINT (-0.206805 51.4454)
9400ZZLUSSQ1,E02000594,Kensington and Chelsea 018,Sloane Square Underground Station,POINT (-0.156144 51.49234)
9400ZZLUSSQ2,E02000594,Kensington and Chelsea 018,Sloane Square Underground Station,POINT (-0.15603 51.49231)
9400ZZLUTWH1,E02000890,Tower Hamlets 027,Tower Hill Underground Station,POINT (-0.076991 51.50966)
9400ZZLUTWH2,E02000890,Tower Hamlets 027,Tower Hill Underground Station,POINT (-0.077109 51.50962)
9400ZZLUTWH3,E02000890,Tower Hamlets 027,Tower Hill Underground Station,POINT (-0.076918 51.5097)
9400ZZLUUPB1,E02000485,Havering 022,Upminster Bridge Underground Station,POINT (0.234857 51.55825)
9400ZZLUUPK1,E02000730,Newham 017,Upton Park Underground Station,POINT (0.034274 51.53516)
9400ZZLUUPK2,E02000735,Newham 022,Upton Park Underground Station,POINT (0.034289 51.53516)
9400ZZLUUPM1,E02000482,Havering 019,Upminster Underground Station,POINT (0.25127 51.55933)
9400ZZLUUPM2,E02000482,Havering 019,Upminster Underground Station,POINT (0.251357 51.55933)
9400ZZLUUPY1,E02000012,Barking and Dagenham 011,Upney Underground Station,POINT (0.100045 51.53837)
9400ZZLUWBN1,E02000593,Kensington and Chelsea 017,West Brompton Underground Station,POINT (-0.195006 51.48696)
9400ZZLUWBN2,E02000593,Kensington and Chelsea 017,West Brompton Underground Station,POINT (-0.194921 51.48691)
9400ZZLUWIM1,E02000691,Merton 003,Wimbledon Underground Station,POINT (-0.206625 51.42134)
9400ZZLUWIP1,E02000689,Merton 001,Wimbledon Park Underground Station,POINT (-0.199312 51.43432)
9400ZZLUWPL1,E02000876,Tower Hamlets 013,Whitechapel Underground Station,POINT (-0.060884 51.5194)
9400ZZLUWPL2,E02000876,Tower Hamlets 013,Whitechapel Underground Station,POINT (-0.060797 51.51941)
9400ZZLUHAI1,E02000566,Islington 013,Highbury & Islington Underground Station,POINT (-0.104338 51.54556)
9400ZZLUHAI2,E02000566,Islington 013,Highbury & Islington Underground Station,POINT (-0.104322 51.54558)
9400ZZLUWWL1,E02000911,Waltham Forest 017,Walthamstow Central Underground Station,POINT (-0.01952 51.58306)
9400ZZLUKPK1,E02000126,Brent 034,Kilburn Park Underground Station,POINT (-0.193937 51.53514)
9400ZZLUWSP1,E02000577,Kensington and Chelsea 001,Westbourne Park Underground Station,POINT (-0.201647 51.52098)
9400ZZLUWSP2,E02000577,Kensington and Chelsea 001,Westbourne Park Underground Station,POINT (-0.201546 51.52097)
9400ZZLURYO1,E02000973,Westminster 014,Royal Oak Underground Station,POINT (-0.188259 51.51908)
9400ZZLUERB1,E02000968,Westminster 009,Edgware Road (Bakerloo) Underground Station,POINT (-0.170273 51.52045)
9400ZZLUERB2,E02000968,Westminster 009,Edgware Road (Bakerloo) Underground Station,POINT (-0.170185 51.52049)
9400ZZLUKSL1,E02000125,Brent 033,Kensal Green Underground Station,POINT (-0.224987 51.53052)
9400ZZLUKSL2,E02000125,Brent 033,Kensal Green Underground Station,POINT (-0.224887 51.53052)
9400ZZLUNWY1,E02000105,Brent 013,North Wembley Underground Station,POINT (-0.303691 51.56232)
9400ZZLUHSN1,E02000119,Brent 027,Harlesden Underground Station,POINT (-0.257694 51.53634)
9400ZZLUHSN2,E02000119,Brent 027,Harlesden Underground Station,POINT (-0.257581 51.5363)
9400ZZLUWJN1,E02000123,Brent 031,Willesden Junction Underground Station,POINT (-0.24449 51.53249)
9400ZZLUSGP1,E02000112,Brent 020,Stonebridge Park Underground Station,POINT (-0.275848 51.54398)
9400ZZLUSGP2,E02000112,Brent 020,Stonebridge Park Underground Station,POINT (-0.275807 51.54391)
9400ZZLUQPS1,E02000124,Brent 032,Queen's Park Underground Station,POINT (-0.205309 51.53416)
9400ZZLUQPS2,E02000124,Brent 032,Queen's Park Underground Station,POINT (-0.205222 51.53417)
9400ZZLUPAC1,E02000974,Westminster 015,Paddington Underground Station,POINT (-0.17547 51.5163)
9400ZZLUPAC2,E02000974,Westminster 015,Paddington Underground Station,POINT (-0.175526 51.51634)
9400ZZLUGHK1,E02000380,Hammersmith and Fulham 009,Goldhawk Road Underground Station,POINT (-0.226767 51.50177)
9400ZZLUGHK2,E02000380,Hammersmith and Fulham 009,Goldhawk Road Underground Station,POINT (-0.226753 51.50176)
9400ZZLUKSX3,E02000189,Camden 024,King's Cross St. Pancras Underground Station,POINT (-0.123961 51.52991)
490000129R,E02000189,Camden 024,King's Cross St. Pancras Underground Station,POINT (-0.121689 51.53047)
490000129D,E02000189,Camden 024,King's Cross St. Pancras Underground Station,POINT (-0.123076 51.5304)
9400ZZLUKSX1,E02000189,Camden 024,King's Cross St. Pancras Underground Station,POINT (-0.12231 51.53043)
9400ZZLUKSX2,E02000189,Camden 024,King's Cross St. Pancras Underground Station,POINT (-0.122208 51.53046)
9400ZZLULAD1,E02000579,Kensington and Chelsea 003,Ladbroke Grove Underground Station,POINT (-0.210783 51.51735)
9400ZZLULAD2,E02000579,Kensington and Chelsea 003,Ladbroke Grove Underground Station,POINT (-0.210667 51.51738)
9400ZZLULRD1,E02000581,Kensington and Chelsea 005,Latimer Road Underground Station,POINT (-0.217779 51.51352)
9400ZZLULRD2,E02000581,Kensington and Chelsea 005,Latimer Road Underground Station,POINT (-0.217853 51.51347)
9400ZZLUVIC1,E02000982,Westminster 023,Victoria Underground Station,POINT (-0.144899 51.49645)
9400ZZLUBXN1,E02000628,Lambeth 011,Brixton Underground Station,POINT (-0.113987 51.46248)
9400ZZLUTMH1,E02000411,Haringey 015,Tottenham Hale Underground Station,POINT (-0.061532 51.58831)
9400ZZLUSVS1,E02000420,Haringey 024,Seven Sisters Underground Station,POINT (-0.073863 51.58243)
9400ZZLUSVS2,E02000420,Haringey 024,Seven Sisters Underground Station,POINT (-0.07398 51.58239)
9400ZZLUPCO1,E02000983,Westminster 024,Pimlico Underground Station,POINT (-0.134044 51.48922)
9400ZZLUBLR1,E02000908,Waltham Forest 014,Blackhorse Road Underground Station,POINT (-0.041254 51.58686)
9400ZZLUWYP6,E02000101,Brent 009,Wembley Park Underground Station,POINT (-0.279504 51.56594)
9400ZZLUWYC1,E02000118,Brent 026,Wembley Central Underground Station,POINT (-0.29631 51.55174)
9400ZZLUWYC2,E02000118,Brent 026,Wembley Central Underground Station,POINT (-0.296794 51.55231)
490014679S,E02000623,Lambeth 006,Nine Elms Underground Station,POINT (-0.127798 51.48063)
9400ZZLUHOH1,E02000455,Harrow 023,Harrow-on-the-Hill Underground Station,POINT (-0.336565 51.57908)
9400ZZLUHOH2,E02000455,Harrow 023,Harrow-on-the-Hill Underground Station,POINT (-0.336479 51.57906)
9400ZZLUNKP1,E02000100,Brent 008,Northwick Park Underground Station,POINT (-0.317569 51.57839)
9400ZZLUKEN1,E02000100,Brent 008,Kenton Underground Station,POINT (-0.316715 51.58156)
9400ZZLUSKT1,E02000100,Brent 008,South Kenton Underground Station,POINT (-0.308559 51.57034)
9400ZZLUPNR1,E02000448,Harrow 016,Pinner Underground Station,POINT (-0.381268 51.59275)
9400ZZLUPNR2,E02000448,Harrow 016,Pinner Underground Station,POINT (-0.381183 51.5927)
9400ZZLUNHA1,E02000451,Harrow 019,North Harrow Underground Station,POINT (-0.362833 51.58509)
9400ZZLUNHA2,E02000451,Harrow 019,North Harrow Underground Station,POINT (-0.362776 51.58506)
9400ZZLUKEN2,E02006882,Harrow 033,Kenton Underground Station,POINT (-0.317168 51.58221)
9400ZZLUHAW1,E02000445,Harrow 013,Harrow & Wealdstone Underground Station,POINT (-0.335403 51.59233)
9400ZZLUHAW2,E02000445,Harrow 013,Harrow & Wealdstone Underground Station,POINT (-0.334573 51.59211)
9400ZZLUPRD1,E02000099,Brent 007,Preston Road Underground Station,POINT (-0.295581 51.57202)
9400ZZLUNWY2,E02000099,Brent 007,North Wembley Underground Station,POINT (-0.303775 51.5628)
9400ZZLUNOW1,E02000495,Hillingdon 002,Northwood Underground Station,POINT (-0.42399 51.611)
9400ZZLUNOW2,E02000495,Hillingdon 002,Northwood Underground Station,POINT (-0.423963 51.61095)
9400ZZLUNWH1,E02000495,Hillingdon 002,Northwood Hills Underground Station,POINT (-0.408974 51.60053)
9400ZZLUNWH2,E02000495,Hillingdon 002,Northwood Hills Underground Station,POINT (-0.408875 51.60049)
9400ZZLUWHW1,E02000456,Harrow 024,West Harrow Underground Station,POINT (-0.353497 51.57981)
9400ZZLUWHW2,E02000456,Harrow 024,West Harrow Underground Station,POINT (-0.353585 51.57977)
9400ZZLUMVL1,E02000966,Westminster 007,Maida Vale Underground Station,POINT (-0.185551 51.52956)
9400ZZLUWKA1,E02000966,Westminster 007,Warwick Avenue Underground Station,POINT (-0.183103 51.52297)
