stop_id,MSOA11CD,MSOA11NM,stop_name,geometry
490002060A,E02000697,Merton 009,Morden Road Tram Stop,POINT (-0.192482 51.40942)
490008586C,E02000697,Merton 009,Morden Road Tram Stop,POINT (-0.19237 51.41081)
490002057C,E02000697,Merton 009,Merton Park Tram Stop,POINT (-0.200154 51.41509)
490002057D,E02000697,Merton 009,Merton Park Tram Stop,POINT (-0.201016 51.41474)
490002057A,E02000697,Merton 009,Merton Park Tram Stop,POINT (-0.202449 51.41522)
490002057B,E02000697,Merton 009,Merton Park Tram Stop,POINT (-0.202079 51.41514)
9400ZZCRDDR1,E02000697,Merton 009,Dundonald Road Tram Stop,POINT (-0.207648 51.41761)
9400ZZCRDDR2,E02000697,Merton 009,Dundonald Road Tram Stop,POINT (-0.207706 51.41761)
9400ZZCRMDN1,E02000697,Merton 009,Morden Road Tram Stop,POINT (-0.192597 51.40905)
9400ZZCRMDN2,E02000697,Merton 009,Morden Road Tram Stop,POINT (-0.192608 51.40878)
9400ZZCRMTP1,E02000697,Merton 009,Merton Park Tram Stop,POINT (-0.201431 51.41479)
9400ZZCRMTP2,E02000697,Merton 009,Merton Park Tram Stop,POINT (-0.201517 51.4148)
9400ZZCRWMB1,E02000691,Merton 003,Wimbledon Tram Stop,POINT (-0.205773 51.42105)
490002010A,E02000139,Bromley 013,Beckenham Road Tram Stop,POINT (-0.043443 51.40935)
490002010B,E02000139,Bromley 013,Beckenham Road Tram Stop,POINT (-0.044072 51.40943)
9400ZZCRBRD1,E02000139,Bromley 013,Beckenham Road Tram Stop,POINT (-0.042855 51.40964)
9400ZZCRAVE1,E02000141,Bromley 015,Avenue Road Tram Stop,POINT (-0.049092 51.40704)
9400ZZCRAVE2,E02000141,Bromley 015,Avenue Road Tram Stop,POINT (-0.0491 51.40685)
9400ZZCRBIR1,E02000141,Bromley 015,Birkbeck Tram Stop,POINT (-0.056063 51.40405)
9400ZZCRELM1,E02006787,Bromley 041,Elmers End Tram Stop,POINT (-0.049555 51.39851)
9400ZZCRBEK1,E02000132,Bromley 006,Beckenham Junction Tram Stop,POINT (-0.02619 51.41095)
490002023W13,E02000217,Croydon 024,Church Street Tram Stop,POINT (-0.104654 51.37427)
490002042C0,E02000217,Croydon 024,Centrale Tram Stop,POINT (-0.103807 51.37598)
490002023W14,E02000217,Croydon 024,Church Street Tram Stop,POINT (-0.105251 51.37372)
9400ZZCRCHR1,E02000217,Croydon 024,Church Street Tram Stop,POINT (-0.103985 51.37377)
9400ZZCRCTR1,E02000217,Croydon 024,Centrale Tram Stop,POINT (-0.103424 51.37623)
9400ZZCRRVC1,E02000217,Croydon 024,Reeves Corner Tram Stop,POINT (-0.10638 51.37527)
9400ZZCRWAN1,E02000217,Croydon 024,Wandle Park Tram Stop,POINT (-0.113082 51.37302)
9400ZZCRWAN2,E02000217,Croydon 024,Wandle Park Tram Stop,POINT (-0.113283 51.37302)
9400ZZCRWCR1,E02000213,Croydon 020,West Croydon Tram Stop,POINT (-0.101984 51.37908)
9400ZZCRWEL1,E02000213,Croydon 020,Wellesley Road Tram Stop,POINT (-0.097539 51.37537)
490002058Y,E02000710,Merton 022,Mitcham Tram Stop,POINT (-0.173303 51.39709)
490002058Z,E02000710,Merton 022,Mitcham Tram Stop,POINT (-0.173038 51.39724)
490002014E,E02000710,Merton 022,Belgrave Walk Tram Stop,POINT (-0.179681 51.39936)
490002014W,E02000710,Merton 022,Belgrave Walk Tram Stop,POINT (-0.179396 51.39931)
490016067K,E02000710,Merton 022,Mitcham Tram Stop,POINT (-0.175406 51.39843)
490016067N,E02000710,Merton 022,Mitcham Tram Stop,POINT (-0.175598 51.39864)
9400ZZCRBGV1,E02000710,Merton 022,Belgrave Walk Tram Stop,POINT (-0.180256 51.39972)
9400ZZCRMCH1,E02000710,Merton 022,Mitcham Tram Stop,POINT (-0.172585 51.39778)
9400ZZCRMCH2,E02000710,Merton 022,Mitcham Tram Stop,POINT (-0.172587 51.39773)
9400ZZCRMJT1,E02000710,Merton 022,Mitcham Junction Tram Stop,POINT (-0.158795 51.39286)
9400ZZCRMJT2,E02000710,Merton 022,Mitcham Junction Tram Stop,POINT (-0.158797 51.39282)
9400ZZCRCEN1,E02000220,Croydon 027,George Street Tram Stop,POINT (-0.098753 51.37381)
9400ZZCRECR2,E02000220,Croydon 027,East Croydon Tram Stop,POINT (-0.092418 51.37481)
490002002A,E02000214,Croydon 021,Addiscombe Tram Stop,POINT (-0.072454 51.38044)
9400ZZCRADD1,E02000214,Croydon 021,Addiscombe Tram Stop,POINT (-0.073058 51.37975)
9400ZZCRADD2,E02000214,Croydon 021,Addiscombe Tram Stop,POINT (-0.073014 51.37975)
9400ZZCRBLA2,E02000214,Croydon 021,Blackhorse Lane Tram Stop,POINT (-0.070735 51.38064)
490002002B,E02000210,Croydon 017,Addiscombe Tram Stop,POINT (-0.073821 51.38005)
490002005E,E02006788,Croydon 045,Arena Tram Stop,POINT (-0.056699 51.38937)
490002005W,E02006788,Croydon 045,Arena Tram Stop,POINT (-0.055587 51.38983)
9400ZZCRARA1,E02006788,Croydon 045,Arena Tram Stop,POINT (-0.058297 51.39136)
9400ZZCRARA2,E02006788,Croydon 045,Arena Tram Stop,POINT (-0.058301 51.39126)
9400ZZCRHAR1,E02006788,Croydon 045,Harrington Road Tram Stop,POINT (-0.060478 51.39961)
9400ZZCRHAR2,E02006788,Croydon 045,Harrington Road Tram Stop,POINT (-0.060478 51.39961)
490002052E,E02000215,Croydon 022,Lebanon Road Tram Stop,POINT (-0.085396 51.3754)
490002072B,E02000215,Croydon 022,Sandilands Tram Stop,POINT (-0.078966 51.37523)
9400ZZCRECR1,E02000215,Croydon 022,East Croydon Tram Stop,POINT (-0.092417 51.37485)
9400ZZCRLEB2,E02000215,Croydon 022,Lebanon Road Tram Stop,POINT (-0.084417 51.37512)
490002086A,E02000207,Croydon 014,Woodside Tram Stop,POINT (-0.064879 51.38832)
490002086B,E02000207,Croydon 014,Woodside Tram Stop,POINT (-0.064144 51.38699)
9400ZZCRBLA1,E02000207,Croydon 014,Blackhorse Lane Tram Stop,POINT (-0.070563 51.38475)
9400ZZCRWOD1,E02000207,Croydon 014,Woodside Tram Stop,POINT (-0.064576 51.38732)
9400ZZCRWOD2,E02000207,Croydon 014,Woodside Tram Stop,POINT (-0.064588 51.38703)
9400ZZCRWAD1,E02000212,Croydon 019,Waddon Marsh Tram Stop,POINT (-0.117886 51.37711)
9400ZZCRWAD2,E02000212,Croydon 019,Waddon Marsh Tram Stop,POINT (-0.118149 51.377)
9400ZZCRAMP1,E02000209,Croydon 016,Ampere Way Tram Stop,POINT (-0.123654 51.38224)
9400ZZCRAMP2,E02000209,Croydon 016,Ampere Way Tram Stop,POINT (-0.123727 51.3822)
9400ZZCRTPA1,E02000209,Croydon 016,Therapia Lane Tram Stop,POINT (-0.128702 51.38529)
9400ZZCRTPA2,E02000209,Croydon 016,Therapia Lane Tram Stop,POINT (-0.128694 51.38551)
490002038A,E02000223,Croydon 030,Fieldway Tram Stop,POINT (-0.024328 51.35139)
490002038B,E02000223,Croydon 030,Fieldway Tram Stop,POINT (-0.023434 51.35014)
9400ZZCRFLD1,E02000223,Croydon 030,Fieldway Tram Stop,POINT (-0.024245 51.3513)
9400ZZCRADV1,E02000227,Croydon 034,Addington Village Tram Stop,POINT (-0.032607 51.3566)
9400ZZCRADV2,E02000227,Croydon 034,Addington Village Tram Stop,POINT (-0.032618 51.35634)
9400ZZCRFLD2,E02000227,Croydon 034,Fieldway Tram Stop,POINT (-0.024647 51.35131)
490010848S,E02000225,Croydon 032,New Addington Tram Stop,POINT (-0.017294 51.343)
490002050A,E02000225,Croydon 032,King Henry's Drive Tram Stop,POINT (-0.021011 51.34571)
490010848N,E02000225,Croydon 032,New Addington Tram Stop,POINT (-0.018075 51.34287)
9400ZZCRKGH1,E02000225,Croydon 032,King Henry's Drive Tram Stop,POINT (-0.020849 51.34614)
9400ZZCRKGH2,E02000225,Croydon 032,King Henry's Drive Tram Stop,POINT (-0.019975 51.34508)
9400ZZCRNWA1,E02000225,Croydon 032,New Addington Tram Stop,POINT (-0.017805 51.34313)
490002013N,E02000850,Sutton 011,Beddington Lane Tram Stop,POINT (-0.141067 51.38801)
490002013S,E02000850,Sutton 011,Beddington Lane Tram Stop,POINT (-0.141045 51.38821)
490013518W,E02000850,Sutton 011,Therapia Lane Tram Stop,POINT (-0.130545 51.38592)
490013518W1,E02000850,Sutton 011,Therapia Lane Tram Stop,POINT (-0.131328 51.3861)
9400ZZCRBED1,E02000850,Sutton 011,Beddington Lane Tram Stop,POINT (-0.142409 51.3893)
9400ZZCRBED2,E02000850,Sutton 011,Beddington Lane Tram Stop,POINT (-0.14241 51.38927)
490002052W,E02000216,Croydon 023,Lebanon Road Tram Stop,POINT (-0.084507 51.37502)
490002072A,E02000216,Croydon 023,Sandilands Tram Stop,POINT (-0.077938 51.37508)
9400ZZCRLEB1,E02000216,Croydon 023,Lebanon Road Tram Stop,POINT (-0.084418 51.37507)
9400ZZCRLOY1,E02000216,Croydon 023,Lloyd Park Tram Stop,POINT (-0.082229 51.36419)
9400ZZCRLOY2,E02000216,Croydon 023,Lloyd Park Tram Stop,POINT (-0.082229 51.36419)
9400ZZCRSAN1,E02000216,Croydon 023,Sandilands Tram Stop,POINT (-0.078027 51.375)
9400ZZCRSAN2,E02000216,Croydon 023,Sandilands Tram Stop,POINT (-0.078036 51.37481)
490002024A,E02000219,Croydon 026,Coombe Lane Tram Stop,POINT (-0.055598 51.35941)
490002024B,E02000219,Croydon 026,Coombe Lane Tram Stop,POINT (-0.055386 51.35931)
490002041A,E02000219,Croydon 026,Gravel Hill Tram Stop,POINT (-0.043313 51.35476)
9400ZZCRCOO1,E02000219,Croydon 026,Coombe Lane Tram Stop,POINT (-0.058623 51.35987)
9400ZZCRCOO2,E02000219,Croydon 026,Coombe Lane Tram Stop,POINT (-0.059226 51.35955)
9400ZZCRGRA1,E02000219,Croydon 026,Gravel Hill Tram Stop,POINT (-0.042355 51.35467)
9400ZZCRGRA2,E02000219,Croydon 026,Gravel Hill Tram Stop,POINT (-0.042364 51.35446)
9400ZZCRBGV2,E02000706,Merton 018,Belgrave Walk Tram Stop,POINT (-0.177806 51.40133)
490002063N,E02000700,Merton 012,Phipps Bridge Tram Stop,POINT (-0.182249 51.40423)
9400ZZCRPHI1,E02000700,Merton 012,Phipps Bridge Tram Stop,POINT (-0.18164 51.40398)
9400ZZCRPHI2,E02000700,Merton 012,Phipps Bridge Tram Stop,POINT (-0.18164 51.40398)
